,pscode,企业名称,所在区域,详细地址,经度,纬度
0,CB67871E1EE812ADB3EF9DC7421171B9,澧县海创环保科技有限责任公司,常德市,湖南省常德市澧县澧南镇,111.705560,29.605556
1,661B669BFE73BF30039221AF69B62479,界首市伟明环保能源有限公司,阜阳市,安徽省阜阳市界首市西城街道吕闫村,115.357780,33.298611
2,75D07C17CA9B51A93661CDA411E83188,光大环保能源（鹰潭）有限公司,鹰潭市,江西省鹰潭市月湖区杨碧村马塘窝,117.078064,28.235556
3,1DCC00CE2B789683E9DFDAAF5570721B,广州环投福山环保能源有限公司（第三资源热力电厂）,广州市,广州市黄埔区九龙镇福山村西侧,113.506386,23.453056
4,FD46DC84DEB2A8EF9CA9BD0C64F3704B,宁阳盛运环保电力有限公司,泰安市,山东省泰安市宁阳县东疏镇后学村,116.635834,35.739723
5,9AE071E859D28FD53C038776CF093B45,河池旺能环保能源有限公司,河池市,河池市德胜生活垃圾处理场内,108.377220,24.674723
6,9AE0E06952A93787A9B490BDD9B98FB5,光大环保能源（常州）有限公司,常州市,常州市武进区遥观镇剑湖村委观庄村208号,120.045998,31.716261
7,24CFF171C301C6AF688A4ECD36C6BF6E,江西洪城康恒环境能源有限公司,南昌市,南昌市昌北经济开发区,115.047218,28.098888
8,C84AC227BD63921A1E86589369A3537A,商丘中电环保发电有限公司,商丘市,河南省商丘市睢阳区郭村镇袁店村南500米,115.499138,34.347630
9,CFED4CB03A71ABF3E7ABC4CE24ACD095,光大环保能源（日照）有限公司,日照市,日照经济技术开发区常州路9号,119.392784,35.343334
10,05447D4F5247EE6BA30BA0046FD112AB,梅州市三峰环保能源有限公司,梅州市,广东省梅州市梅江区西阳镇奇龙坑,116.178665,24.299900
11,C029DE04705675A29C293F895B00D096,凯里盛运环保电力有限公司,黔东南苗族侗族自治州,贵州省凯里市炉山镇,107.453300,26.382900
12,8609CB94471AA9B6013C57FE4038A0C5,平潭北厝垃圾焚烧发电有限公司,福建省,福建省平潭综合实验区北厝镇先建村西壁25号,119.137222,25.801945
13,C189999F51E4BEE6D1ECA0F1F22BBEFB,华西能源张掖生物质发电有限公司,张掖市,甘肃省张掖经济技术开发区循环经济示范园（兔儿坝滩）,100.480003,39.053890
14,27759AA696B692BD7601E65E8B062FF0,中电国际新能源海南有限公司老城开发区海口环保发电厂,海南省,海南省澄迈县老城开发区仲音路,110.068459,19.933180
15,10CCFF6ADF1A56DD7F8BCF4E5AD92CB4,中节能（衡水）环保能源有限公司,衡水市,经济开发区大麻森安辛庄,115.778893,37.769722
16,13C2D0DCE6FB5F5F1BFDA298A54CA80D,温州龙湾伟明环保能源有限公司,温州市,温州市龙湾区永中度山村,120.791389,27.897778
17,AE161A7AB1D01B42E272C8045E876CE0,信宜粤丰环保电力有限公司,茂名市,广东省信宜市池洞镇贺洞村大庆坑,110.936111,22.505833
18,3E22DA83672A6997C05FD8763F95BDD7,中节能（沧州）环保能源有限公司,沧州市,沧州市新华区小赵庄乡顾官屯村南,116.933060,38.326389
19,8609CB94471AA9B6D2D27B6AEA5DC047,宁德漳湾垃圾焚烧发电有限公司,福建省,蕉城区漳湾镇郑岐村杖垂岗,119.559875,26.697395
20,779188E723A23D23477BF5AE2B77B14C,宁夏中科国通新能源有限公司,吴忠市,吴忠市利通区牛首山银平公路西侧尚德路南侧,106.074450,37.756943
21,E85C2711017655CF403AF7D59AFD4354,银川中科环保电力有限公司,银川市,银川经济技术开发区横山工业园,106.493332,38.242218
22,85B6CA827F48D231EE091F4BBEE40A6A,粤丰科维环保投资（广东）有限公司,东莞市,东莞市横沥镇西环路,113.934761,23.040272
23,8F3EAC9171F405F4F63552351D74351D,平湖市德长环保有限公司,嘉兴市,平湖市独山港区海河路1555号,121.207695,30.665722
24,607D7BE39E8B49748BD4CDD26F04FCDB,光大城乡再生能源（萧县）有限公司,宿州市,宿州市萧县丁里镇,116.888336,34.103333
25,B90386592391E809886C7EFFC554E56D,光大环保能源（惠东）有限公司,惠州市,广东省惠州市惠东县平山街道办坣陂村横坑,114.744820,22.895210
26,8609CB94471AA9B6C3721D5A6CF1EFE1,瀚蓝（晋江）固废处理有限公司,福建省,福建省晋江市罗山街道永兴路1号,118.528679,24.779089
27,187BB3F9C98925BF7217382B199DF3F1,光大现代环保能源(湘阴)有限公司,岳阳市,湘阴县文星镇漕溪港街道办事处,112.946671,28.736944
28,BC10C6CEBC5A958EB04CF5EB765175DF,介休市国泰绿色能源有限公司,晋中市,介休市绵山镇保和村,111.736115,36.833611
29,C23C9134D2D8B4703037325E37B093A3,长青环保能源（中山）有限公司（中心组团一二期垃圾焚烧）,中山市,中山市南朗镇蒂峰山中心组团垃圾综合处理基地,113.506866,22.535936
30,1C1224EE67265E92906BB90C36645803,天津市晨兴力克环保科技发展有限公司,天津市,天津市北辰区青光镇京福公路西安光路2000号,117.010550,39.219270
31,9AE0E06952A937878C7E85545B032D46,光大常高新环保能源（常州）有限公司,常州市,常州滨江经济开发区港区南路10号,119.971458,31.961660
32,CFED4CB03A71ABF3C296CD7DF25D66B7,莒县光大环保能源有限公司,日照市,山东省日照市莒县浮来山街道坝田路909号,118.774445,35.573055
33,661B669BFE73BF30FC38A537863B860B,阜阳皖能环保电力有限公司,阜阳市,安徽省阜阳市颍东区插花镇吕湖村,115.956398,32.982399
34,6BB71200415564E04578F2B449AB02CF,佳木斯博海环保电力有限公司,黑龙江省,佳木斯市东风区高新区低碳产业园,130.495682,46.811852
35,E07A3BCFC8AB4FADF86802DC67E11D52,泗洪高能环境生物质能有限公司,宿迁市,泗洪县青阳镇重岗社区县卫生填埋厂北侧,118.171112,33.544445
36,C541F3ABC7FF20C43426DFEBCF985E0D,光大环保能源（沛县）有限公司,徐州市,沛县经济开发区周勃西路6号,116.879997,34.783054
37,67925EE5808CF3ECA7CDDB4C9A5064C0,新疆天富垃圾焚烧发电有限责任公司,新疆生产建设兵团,石河子市北工业园区东七路北十五路交叉路口向东800米,86.111946,44.368889
38,3B45506609B3B60FF04A9CEFE16F78C3,宣城中科环保电力有限公司,宣城市,安徽省宣城市经济技术开发区古泉镇睦马村金坝长桥路以西,118.623886,30.935833
39,8F3EAC9171F405F4E3F246DCF2B61530,玉环伟明环保能源有限公司,台州市,玉环市玉城街道西滩村小滩,121.184151,28.157938
40,DD8AFFD47EC883FF7C80CC6EC7E433B4,北流粤丰环保电力有限公司,玉林市,广西玉林市北流民安镇兴上村甲丫冲,110.433891,22.766945
41,B90386592391E8094DA7D00D47435B80,惠州绿色动力再生能源有限公司,惠州市,沙田镇田头村榄子垅环境园,114.512500,22.853611
42,661B669BFE73BF3038C51D1D37E62E6B,太和县天楹环保能源有限公司,阜阳市,太和县双浮镇双兴村,115.589722,33.315556
43,0FB5E2B1D7F5B2378BA6CCF06ED293DB,海诺尔(宜宾)环保发电有限公司,宜宾市,四川省宜宾市高县胜天镇铜鼓村,104.715836,28.666945
44,A72A7408C1DC984BB2713E4B30C50E02,重庆同兴垃圾处理有限公司,重庆市,重庆市北碚区童家溪镇五星路101号,106.431114,29.673056
45,50AAFD4DDABFFDD6C217F8F356B10816,乳山绿色动力再生能源有限公司,威海市,山东省威海乳山市开发街西首,121.509171,36.892223
46,7A6222977FCB34E9A58C4E9DCC3B5709,仙桃绿色东方环保发电有限公司,仙桃市,仙桃市干河办事处郑仁口村四组,113.389786,30.340130
47,78660FCBB57BEF7417711C2B71F47074,株洲市金利亚环保科技有限公司,株洲市,湖南省株洲市石峰长石村株洲垃圾发电厂,113.053055,27.880278
48,DE3681CD588BB5A768086314E8885B94,昆明三峰再生能源发电有限公司,云南省,昆明市新机场搬迁安置区长水新村上面,103.027931,25.131609
49,FD46DC84DEB2A8EF0FB6A7B859345E70,中节能（肥城）环保能源有限公司,泰安市,肥城市老城街道办事处乔庄村,116.650000,36.450000
50,2FC51BC0AB25E9211F560C026963F9F2,中节能（即墨）环保能源有限公司,青岛市,山东省青岛市即墨市S203(青威路),120.299065,36.389004
51,5F537522C722293B4DC13A534F319E61,金华乌拉环保能源有限公司,金华市,金华市婺城区城西街道环城西路776号,119.618614,29.087778
52,536FDA86F72AAB9D58498CB10F3BD2C1,合肥长丰皖能环保电力有限公司,合肥市,长丰县陶楼乡,117.198608,32.115276
53,CBB517961CECB27C1803BBB0944D468C,费县光大环保能源有限公司,临沂市,费县费城街道田石公路北沂州水泥厂西邻,117.889999,35.299721
54,B3B4454BA852A40A5F617E452A19B10A,蒙城环蒙再生能源有限公司,亳州市,安徽蒙城庄周街道办事处九里桥村,116.501831,33.247860
55,CB142F3CDE6FD322D969AAEB4CB2FE45,达州佳境环保再生资源有限公司,达州市,通川区复兴镇九龙村五组,107.425888,31.205311
56,A9C4EA6459B5C41515F1AFED50A52B4F,嘉祥光大环保能源有限公司,济宁市,嘉祥县梁宝寺镇燕尾河村北500米,116.259865,35.615593
57,C18E59218D21356A7283FF52F76520B3,珠海信环环保有限公司,珠海市,珠海市斗门区斗门蛛山北路2号,113.123611,22.202778
58,CBB517961CECB27CA1ACF152FB37FEF7,中节能（临沂）环保能源有限公司,临沂市,兰山区,118.229450,35.110280
59,412C25AB1B9E7D5040E10DBB0CFB216E,中节能（天水）环保能源有限公司,天水市,天水市经济技术开发区社棠工业园,105.971664,34.552223
60,DD2307D000E83EDAC31FDA0F3B8E2BD2,新余永清环保能源有限公司,新余市,新余市渝水区珠珊镇板桥收费站往前一公里处,114.959198,27.734200
61,DE3681CD588BB5A7B30BF30D7F907D31,楚雄东方新能源环保有限公司,云南省,云南省楚雄州楚雄市苍岭镇黄草坪垃圾填埋场,101.681664,25.023333
62,32852A2A43E8C0033BD256C5BFD334A9,芜湖绿洲环保能源有限公司,芜湖市,芜湖市经济技术开发区大件路1号,118.358948,30.646011
63,A32C021E641DC7EA5A58E25F66DD482E,江西景圣环保有限公司,景德镇市,江西省景德镇市浮梁县寿安镇,117.292780,29.271110
64,FF3484BBAC9308215241DC4694A64903,许昌旺能环保能源有限公司,许昌市,魏都区七里店香山公园南侧,113.751114,34.037777
65,4B8C0090E591106DCDAF32BB881C4A43,荆州旺能环保能源有限公司,荆州市,荆州市荆州区纪南镇拍马村,112.180565,30.052500
66,B93B47F2D7583850B357B921138E9692,嘉善伟明环保能源有限公司,嘉兴市,嘉善县姚庄镇界泾港村,120.927780,30.981388
67,7743A394AA6BE682EAFB9030C38AB882,六安三峰环保发电有限公司,六安市,六安市裕安区城南镇紫园村,116.512840,31.696638
68,4EA3A1FD45F36A33ACE8832654DE62A7,西华首创环保能源有限公司,周口市,西华县干校路与工业六路交汇处南侧,114.478615,33.791943
69,75D07C17CA9B51A9243809C8502D529A,鹰潭市龙欣能源管理有限公司,鹰潭市,鹰潭市月湖区杨碧村马塘窝鹰潭市生活垃圾卫生填埋场内,117.063004,28.232500
70,1BEC2903CC2A60B24DA8904A0DAA4E50,无锡惠联垃圾热电有限公司,无锡市,无锡市惠山区堰桥镇,120.256668,31.694166
71,45AA0794393DE9516B7AB5AF745A17EC,石家庄厦能炘环保科技有限公司,石家庄市,石家庄市井陉县上安镇王庄村,114.179565,38.031101
72,DF7968338A2638D7878C73166B882480,西安泾渭康恒环境能源有限公司,西安市,西安市高陵区耿镇街办十里村,109.101944,34.486389
73,C541F3ABC7FF20C4436F4ED0E451A6C1,徐州鑫盛润环保能源有限公司,徐州市,徐州市铜山区大彭镇,117.035278,34.282501
74,65B9EEE9D7DF14DB7E1CC6F284192DAC,襄阳恩菲环保能源有限公司,襄樊市,襄城区岘山1000号,112.143890,33.926109
75,0D5F210D2E72049F94F5EB7E053E76EC,光大环保能源（潍坊）有限公司,潍坊市,潍坊滨海经济技术开发区昌乐（滨海）特色产业园临港路与辽河西街交叉口西北角,119.071114,37.165001
76,F3AB5916A417E48E6C2AF5E329DA3A99,上海环城再生能源有限公司,上海市,上海嘉定区绥德路800号,121.360291,31.269577
77,A72A7408C1DC984BAAC33F50368CD271,重庆市涪陵区三峰环保发电有限公司,重庆市,重庆市涪陵区石沱镇天府路8号,107.150887,29.687164
78,45AA0794393DE9513A8A251A2881BE03,中节能（石家庄）环保能源有限公司,石家庄市,石家庄市装备制造基地（原栾城县窦妪工业区）,114.515564,37.893055
79,DE3681CD588BB5A723F3BFA8B55D1881,昆明海创环境工程有限责任公司,云南省,云南省昆明市嵩明县小街镇大桥村小药灵山,103.164986,25.307301
80,7E4B12708C6CB149238772E0F7C4C108,洛阳环洛再生能源有限公司,洛阳市,洛阳市涧西区柳石路188号,112.302780,34.621113
81,F414F3DA1C958247E30A662461F86A4A,太原市同舟能源有限公司,太原市,太原市迎泽区郝庄镇新沟村环卫路1号,112.623337,37.839443
82,9DFF3FA6740ECECCC3515CFCC8361691,贵阳中电环保发电有限公司,贵阳市,贵阳市花溪区,106.662500,26.438334
83,A9C4EA6459B5C415AF4336198732EBE6,济宁中科环保电力有限公司,济宁市,任城区李营街道北尧村北,116.639442,35.533890
84,4588CB97B8AEEC96D69AC9BB9F6914FE,光大环保能源（杭州）有限公司,杭州市,杭州市余杭区中泰街道南峰村大坞里,119.865555,30.237778
85,A72A7408C1DC984B4158AA27F3FE9092,重庆绿能新能源有限公司,重庆市,重庆市开州区渠口镇渠口镇一组,108.469170,31.120001
86,2FD86C1B7A1ED71B4725901738B21F4F,光大城乡再生能源（凤阳）有限公司,滁州市,滁州市凤阳县凤宁现代产业园,117.683220,32.918568
87,A9C4EA6459B5C4155448E6B890D10953,泗水海螺创业环境工程有限责任公司,济宁市,山东省泗水县苗馆镇（济宁海螺水泥有限责任公司院内）,117.443886,35.614445
88,E07A3BCFC8AB4FAD0993B006FE85CD7E,光大环保能源（宿迁）有限公司,宿迁市,宿迁市宿城区复旦路66号,118.170547,33.932499
89,8609CB94471AA9B62BC3A8833718E0C2,漳州市圣元环保电力有限公司,福建省,漳州市漳浦县旧镇镇郭厝村古城新村,117.703156,24.073406
90,8DE01318CDB4095CB5272DBD40229E94,光大环保能源（吉安）有限公司,吉安市,吉安市井开区高新街道105国道旁,114.996391,26.990278
91,866B66AF0CE56CB2BEA0AA99BECC1E60,灌南新苏国丰新能源有限公司,连云港市,连云港市灌南县新集镇孙庄村,119.461670,34.107918
92,85B6CA827F48D231C76E46E89532DD22,东莞粤丰环保电力有限公司,东莞市,东莞市南城区水濂山路,113.762779,22.948889
93,866B66AF0CE56CB24026EC197DCED05F,光大城乡再生能源（灌云）有限公司,连云港市,灌云县经济开发区浙江中路南侧,119.248611,34.256943
94,516DD3A24ADEF30DF40CE20839859A6C,霸州中电环保发电有限公司,廊坊市,河北省廊坊市霸州市煎茶铺镇油田农场西侧112国道北侧,116.525139,39.132412
95,CE1CB6A0B9A78F11963F5541C2837E38,光大环保能源（菏泽）有限公司,荷泽市,山东省菏泽市牡丹区安兴镇光大路666号,115.670868,35.338146
96,B90386592391E8090D395916B2D8567E,惠州绿色动力环保有限公司,惠州市,广东省惠州市惠阳区沙田镇田头村榄子垅,114.349442,23.105556
97,13C2D0DCE6FB5F5F1DA27CBF26FE0FBD,瑞安市伟明环保能源有限公司,温州市,瑞安市上望街道垃圾填埋场内,120.699720,27.718056
98,FE995D3ED899F2F53AB22481C41C8EB1,中节能抚州环保能源有限公司,抚州市,江西省抚州市临川区抚北镇金坪村,116.297981,28.036249
99,7743A394AA6BE682A2F4D5F1FDB06A32,金寨海创环境工程有限责任公司,六安市,六安市金寨县,115.949165,31.782778
100,08A06AB7A6A46D549088A1CD6CD98971,大连泰达环保有限公司,大连市,大连湾街道拉树房村,121.587502,39.083057
101,3BAF3198C0944D379FED51DE6CAB9043,光大环保能源（宜兴）有限公司,无锡市,江苏省无锡市宜兴市新街街道蒲墅村北,119.653000,31.333416
102,8F3EAC9171F405F4DC7C716315FF1145,浙江春晖环保能源股份有限公司,绍兴市,上虞市,120.927223,30.107500
103,1B54095EFF87CACA5CC879155265974A,库尔勒三峰广翰能源开发有限公司,巴音郭楞蒙古自治州,库尔勒垃圾填埋场南侧,86.287682,41.662388
104,E04828787A701DB124DBBC22D4574428,辛集冀清环保能源有限公司,辛集市,辛集市清洁化工园区内,115.333481,37.867905
105,B90386592391E809C3AEB16888EB618D,光大环保能源（博罗）有限公司,惠州市,广东省惠州市博罗县湖镇镇新作塘村花果山,114.203552,23.219128
106,D943A7B0CA6BAF06D0E0C2D89AC448D4,内蒙古普拉特交通能源有限公司,包头市,九原区麻池镇南绕城收费站南100米,109.850151,40.560555
107,1DCC00CE2B789683DAA3A55E773F97D1,广州环投从化环保能源有限公司,广州市,广州市从化区鳌头镇潭口村,113.500000,23.651112
108,CCBC9E7F48D9BB872BA77B797002234E,池州皖能环保电力有限公司,池州市,安徽省池州市贵池区涓桥镇陀弥山南冲,117.763611,30.988056
109,1623CD22925DA236E9808AF49D2B2E16,信阳康恒新能源有限公司(垃圾发电),信阳市,河南省信阳市光山县寨河镇罗湖村,114.888336,32.112778
110,F3AB5916A417E48E7F1EB7C8BCDD690B,上海浦城热电能源有限公司,上海市,上海市浦东新区御桥路869号,121.656189,31.113056
111,F3E34C08C5C84F5A11DDD1D38A2CBAD1,郑州东兴环保能源有限公司,郑州市,中牟县郑庵镇郑油磨村,113.964165,34.627220
112,7240307165D642605D794F8D8E8D8292,丽水旺能环保能源有限公司,丽水市,丽水水阁工业区,119.840599,28.360800
113,CBB517961CECB27C0F44CBCE7BA3DB5F,沂水沂清环保能源有限公司,临沂市,沂水县黄山铺镇黄石官庄村北侧,118.521385,35.776943
114,8F3EAC9171F405F4717F848F9B737358,宁波中科绿色电力有限公司,宁波市,镇海区,121.612221,29.594444
115,B93B47F2D758385043E6EA64D64CCF9F,海宁绿动海云环保能源有限公司,嘉兴市,海宁市尖山新区滨海路22号,120.820099,30.311199
116,2A6045384F72F941D94917348166A0CB,阳谷新源热电有限公司,聊城市,阳谷县狮子楼办事处华山路,115.754166,36.123055
117,BED56B5FBD0168C50761749BE6540CBC,浦湘生物能源股份有限公司,长沙市,湖南省长沙市望城区桥驿镇浦湘生物能源股份有限公司办公楼,112.976852,28.414467
118,00586C96EB6533B8BA5BE84DDC462AFE,肇庆市博能再生资源发电有限公司,肇庆市,四会市下茆镇南塘村委会伙崀咀村168号,112.668671,23.445723
119,8885F9EE17CD295EA0872F627DA1288B,德江盛运环保电力有限公司(垃圾焚烧),铜仁地区,贵州省德江县煎茶镇煎茶社区老木关德江盛运环保电力有限公司,107.773611,28.007778
120,F5E65030F388527BB8E4866AF9577B7E,兰州丰泉环保电力有限公司,兰州市,甘肃省兰州市皋兰县忠和镇罗官村肖家窑南侧,103.793892,36.147778
121,84E283BA983FB75EA31604B5CDD3C265,贺州高能时代环境技术有限公司,贺州市,贺州市八步区莲塘镇新燕村,111.609718,24.431944
122,FB26BB9222E532EB1A1E4DAF6CC53463,章丘绿色动力再生能源有限公司,济南市,山东省济南市章丘区高官寨街道魏化林村村北,117.281387,36.938889
123,607D7BE39E8B497415F0C1037235AA21,光大环保能源（砀山）有限公司,宿州市,安徽省宿州市砀山县经济技术开发区,116.418297,34.409698
124,AC163D7A5128784D32291C7D02331DEA,深圳市深能南部生态环保有限公司,深圳市,广东省深圳市南山区妈湾大道1032号,113.872803,22.485653
125,8F3EAC9171F405F4E1C0DCBB56394DFC,浙江富春江环保热电股份有限公司,杭州市,富阳区灵桥镇春永路188号,120.001114,30.022778
126,A9C4EA6459B5C4153AEB497F326136C9,邹城光大环保能源有限公司,济宁市,邹城市唐王山前路66号,116.994446,35.356667
127,27759AA696B692BD270C6B689BECEC34,光大环保能源（屯昌）有限公司,海南省,海南省屯昌县屯城镇大洞村牛鼻岭,110.155746,19.384039
128,3E458CF3D8129DCDF194B92FF24EDC04,延吉天楹环保能源有限公司,延边朝鲜族自治州,延吉市小营镇小营村,129.602768,42.904495
129,AB1C3C926458240BC8D89316DBBC7C10,咸阳海创环境能源有限责任公司,咸阳市,陕西省咸阳市礼泉县烟霞镇下韩村,108.558334,34.623055
130,CE1CB6A0B9A78F115F4165462808B39E,单县深能环保有限公司,荷泽市,山东省菏泽市单县经济技术开发区,116.143890,34.815556
131,3BE32931AD169A5A54A9DC1F07E920DA,中机眉山再生能源有限公司,眉山市,眉山东坡区盘鳌乡,103.637220,30.140556
132,9727FC0EA894BD87AA236552A3368F2C,江苏大吉环保能源有限公司,盐城市,盐城市亭湖区新兴镇洪东村静脉产业园内,120.004433,33.429432
133,068E652C488E6D0103C2369852C6E420,光大环保能源（宝应）有限公司,扬州市,扬州市宝应县望直港镇光大路1号,119.454170,33.263058
134,5AADB5AA5AEC1BCBC487B1182E9F0608,贵州新源环境科技有限责任公司,六盘水市,六盘水市钟山区汪家寨镇艺奇村一组大马湾,104.767662,26.695381
135,661B669BFE73BF30E9E6D8BA1528876F,阜南绿色东方环保能源有限公司,阜阳市,阜南县苗集镇平安村,115.663414,32.933334
136,0A7A58EFC1ABF796FB70BE94EA7FEAD5,开封中节能再生能源有限公司,开封市,开封市祥符区范村乡元府庄村87号,114.552483,34.984871
137,5AC8CE20B62DF98A0ACAEACEE7DB9CE1,武汉博瑞环保能源发展有限公司,武汉市,武汉市汉阳区永安堂172号,114.178711,30.570108
138,5AC8CE20B62DF98A01B7962FC2BBD064,武汉汉口绿色能源有限公司,武汉市,武汉市黄陂区盘龙城经济开发区刘店村,114.322777,30.693890
139,86C73CA6E4847265BF7D242027684EB8,防城港中科绿色能源有限公司,防城港市,防城港市港口区公车镇白沙村,108.439796,21.613600
140,457020B7A3AAEB44D9D3C94699AE30EB,瀚蓝绿电固废处理（佛山）有限公司,佛山市,广东省佛山市南海区狮山镇林场大榄分场,113.043053,23.162500
141,246CE36D3EB906DB46AED87D79A2FE25,天津泰环再生资源利用有限公司,天津市,天津市东丽区杨北公路296号,117.342499,39.217777
142,CBB517961CECB27CFACE953EA90AE1DC,兰陵兰清环保能源有限公司,临沂市,山东省临沂市兰陵县经济开发区农场路南段,118.045555,34.862499
143,8609CB94471AA9B6C4AABB9B20EA23B0,石狮市鸿峰环保生物工程有限公司,福建省,福建省石狮市锦尚镇将军山,118.728890,24.709723
144,7A57E25935FED4B61B84AA0905451400,莱阳光大环保能源有限公司,烟台市,烟台市莱阳市光大路9号,120.661400,36.908489
145,826984DBB7C428464C78B28979223F88,北京首创顺政环保能源科技有限公司,北京市,北京市顺义杨镇西庞村南,116.869944,40.119806
146,C84AC227BD63921A774AC27B3152351B,睢县首创环保能源有限公司,商丘市,河南省商丘市睢县尚屯镇马洪寺,115.971107,34.414722
147,2B70DC7FC6D727FE50D0453C91CE622A,中节能(汕头潮南)环保能源有限公司,汕头市,潮南区两英镇风华村古楼山大坷尾洋,116.399445,23.174166
148,8609CB94471AA9B6321659E1932D0B33,瀚蓝（常山华侨经济开发区）固废处理有限公司,福建省,常山华侨经济开发区海峰管区深垅100号,117.392220,23.869770
149,6BB71200415564E0AF906F0C40CD23DF,七台河绿能新能源有限公司,黑龙江省,七台河市桃山区茄子河林场二道沟,131.001556,45.736862
150,6A8F27792B3E97060C884B4054514BF7,榆林绿能新能源有限公司,榆林市,榆林市榆横工业园区榆马路南,109.684444,38.126389
151,21E4F1EDE76FB1BC5B3627D9AD976A24,成都中节能再生能源有限公司,成都市,成都市青白江区工业集中发展区南区同济大道南延线,104.409721,30.878056
152,033E7D088B8030FDB5CF3A4E0EBF097C,德惠市德佳环保能源有限公司,长春市,吉林省德惠市经济开发区太兴村,125.733330,44.567223
153,A9CFDFCE08B0670889075329432674FD,北控环境再生能源（张家港）有限公司,苏州市,张家港市塘桥镇滩里村,120.365829,31.719999
154,6BC786A9FB7E8B8A51103F84D1FF202B,陆丰粤丰环保电力有限公司,汕尾市,陆丰市东海镇东海大道西金华西路北之七,115.930832,22.887777
155,2FD86C1B7A1ED71B8697F15DAE0B56D5,滁州皖能环保电力有限公司,滁州市,安徽省滁州市琅琊区扬子办雷桥村东田郢村名组,118.575577,32.659138
156,1E0C72AC51CF5EBEAB298DB2915733D4,光大环保能源（乐山）有限公司,乐山市,乐山市市中区迎阳乡迎阳村七组,103.869164,29.577499
157,A9CFDFCE08B0670877814707AB8BC93B,太仓协鑫垃圾焚烧发电有限公司,苏州市,太仓市双凤镇新湖新卫村,121.068336,31.453056
158,18B72E1FFFEED6A11DE8D2B6D8975242,弋阳海创环境能源有限责任公司,上饶市,江西省弋阳县南岩镇宝峰村,117.447777,28.280277
159,7A57E25935FED4B6BE02D8653E137568,栖霞光大环保能源有限公司,烟台市,栖霞市翠屏街道松江路东1公里,120.800552,37.301666
160,6BB71200415564E0334D3A3E262A3BED,哈尔滨市双琦环保资源利用有限公司,黑龙江省,哈尔滨市香坊区哈成路261号,126.484169,45.423611
161,4588CB97B8AEEC96AE1E187FCDD78851,桐庐盛运环保电力有限公司,杭州市,桐庐县濮家村樟高坞,119.706665,29.840000
162,6BB71200415564E03A2F916FF24DA2FE,通河县龙能资源再生利用有限公司,黑龙江省,哈尔滨市通河县,128.736115,45.651943
163,2CE7A8B727E8969D12A67D9C0C928FFC,湖州南太湖环保能源有限公司,湖州市,浙江省湖州市南浔区和孚镇,120.192848,30.793861
164,0292E4266C2A737F76019643CE2E0AC3,唐山洁城能源股份有限公司,唐山市,唐山市丰南区尖子沽乡丰碱线与范彭线交叉口西南侧,118.089874,39.397133
165,AE161A7AB1D01B4219ECF21FBBF58192,化州深能环保有限公司,茂名市,丽岗镇南斋坑生活垃圾填埋场,110.602776,21.754168
166,B3B4454BA852A40A1524AE6868253221,亳州洁能电力有限公司,亳州市,安徽省亳州市谯城区十河镇崔庄,115.706390,33.698891
167,A1B4A43FDBD3AACDE7CA901D1218183B,淮南皖能环保电力有限公司,淮南市,安徽省凤台县经济开发区,116.800835,32.700832
168,4588CB97B8AEEC9651F1368C155B7410,光大环保能源（淳安）有限公司,杭州市,浙江省淳安县金峰乡山后村西塘屋自然村3号,118.928886,29.675556
169,F3AB5916A417E48E6ECA784F086F9FBD,上海城投瀛洲生活垃圾处置有限公司,上海市,崇明县港沿镇港沿公路4098号,121.696945,31.633612
170,595D63CD0F60FED869EBC219362A28FD,光大环保能源（兰考）有限公司,开封市,河南省开封市兰考县产业集聚区东泰路,114.833336,34.799442
171,8609CB94471AA9B6FDCE79C57E99A869,南安市圣元环保电力有限公司,福建省,南安市柳城街道办事处杏莲工业区17号,118.391403,24.935122
172,DE3681CD588BB5A7E23803D5B930B0E3,曲靖云能投新能源发电有限公司,云南省,云南省曲靖市沾益区金龙街道玉光社区大明槽,103.843613,25.630833
173,13C2D0DCE6FB5F5FC8248185D23F0817,平阳绿色动力再生能源有限公司,温州市,温州市平阳县鳌江镇东江村,120.483330,27.587500
174,5F537522C722293B845B6E1D73FB414F,兰溪旺能环保能源有限公司,金华市,兰溪市女埠街道渡三村,119.426110,29.292500
175,710ED230A1404DE75231AEE78911DB2D,沈阳西部环境有限公司,沈阳市,辽宁省沈阳市经济技术开发区经济技术开发区细河二十七北街,123.041664,41.663055
176,72B79184FE8F276A394BABB4162C2B14,呼和浩特市京城固体废物处置有限公司,呼和浩特市,金桥开发区金桥热电厂西南3公里,111.724861,40.678249
177,2FC51BC0AB25E921233B75761B3C1EB4,青岛康恒再生能源有限公司,青岛市,山东省青岛市红岛经济区河套街道小涧西社区固体废弃物综合处置中心以北500米,120.158508,36.290371
178,70D48D03508236AF20B50C236116CF19,天津滨海环保产业发展有限公司（滨海新区大港垃圾焚烧发电厂）,天津市,济民街262号,117.567497,38.792778
179,DE3681CD588BB5A728A000BC87ECCBDC,砚山海创环境工程有限责任公司,云南省,云南省文山州砚山县维摩乡炭房高速连接线以东,104.191450,23.718950
180,AC163D7A5128784D7A9E9EE952D0EDFD,深圳市能源环保有限公司宝安垃圾发电厂（三期）,深圳市,广东省深圳市宝安区燕罗街道老虎坑环境园,113.847031,22.830580
181,CBB517961CECB27CCA03D605F9736390,临沂恒泰新能源有限公司,临沂市,沂南县大庄镇远扬路,118.548889,35.465282
182,AC163D7A5128784D2BB2B21A968CBB29,深圳市能源环保有限公司盐田垃圾发电厂,深圳市,深圳市盐田区北山道青麟坑,114.243889,22.608889
183,A0E018B75B5A77775B585A50DF05B8FC,东营华源新能源有限公司,东营市,东营市垦利区零排路6号,118.508890,37.576390
184,8F3EAC9171F405F400C96903C2377FB8,杭州萧山锦江绿色能源有限公司,杭州市,萧山区蜀山街道章潘桥村,120.506935,30.288889
185,F8BAE76E47971E387C63F6037790D628,中航工业南充可再生能源有限公司,南充市,南充嘉陵区李渡镇张家桥村,106.044899,30.599869
186,8609CB94471AA9B65828C9D3B13E8DB3,厦门市环境能源投资发展有限公司(海沧厂),福建省,厦门市海沧区海沧南大道369号,117.984100,24.503300
187,FA41FCCF33B10EBDB4E188263BC10BDC,公主岭德联生物质能源有限公司,四平市,公主岭市苇子沟乡苇子沟村2屯,124.831390,43.483334
188,F3AB5916A417E48E2212DCACED2EF626,上海老港固废综合开发有限公司,上海市,上海市浦东新区南滨公路2088弄288号老港固废基地内东南角,121.865189,31.044611
189,8A986562EB0E5D40C7B6C77848D4389F,齐河光大环保能源有限公司,德州市,德州市齐河县晏婴路北首,116.116669,36.135277
190,7CC9A2BE7BDF81FA9B76889738FAE519,光大环保能源（富平）有限公司,渭南市,陕西省渭南市富平县留古镇三寨村张觅路南侧,109.246391,34.748333
191,5CD4170FD3202C700D68A6B27EAFE846,廉江市绿色东方新能源有限公司,湛江市,廉江市横山镇七星岭,110.159721,21.519444
192,3255E390BCC698228D75DD1FC2C7400A,赣州恩菲环保能源有限公司,赣州市,赣县王母渡镇新兴村榴坑里,114.951668,25.673611
193,84A3A11E81B3A20703201767306E0B7E,广安能投华西环保发电有限公司,广安市,广安市岳池县普安镇斑竹园村,106.460281,30.386667
194,8F3EAC9171F405F4D5CBECA7D12F9282,临海市伟明环保能源有限公司,台州市,临海市,121.213501,28.815701
195,E568601951AA387840852AA860BF265B,中节能（平顶山）环保能源有限公司,平顶山市,河南省平顶山市化工产业集聚区（叶县龚店乡）,113.454842,33.695145
196,5AC8CE20B62DF98A2BB6E4C9A9540AF3,武汉市绿色环保能源有限公司,武汉市,武汉市江夏区郑店街雷竹村武汉市绿色环保能源有限公司,114.216667,32.349998
197,41D2DFB41BC105B326B5ACAB6DE6FB48,温岭绿能新能源有限公司,台州市,温岭市滨海镇温岭市东部新区北面长新塘内,121.595558,28.469444
198,5CD4170FD3202C70992D2C0792C19EFC,湛江市粤丰环保电力有限公司,湛江市,湛江市麻章区冯村鹰岭,110.301109,21.193056
199,0120B1AE224A2DF6387AC3B07F3099AC,樟树市伟明环保能源有限公司,宜春市,宜春市樟树市观上镇林科所旁,115.627441,28.031889
200,7C95A9A07BA99A8851DC41CEC06ED326,杭州绿能环保发电有限公司,杭州市,杭州市滨江区浦沿街道山二村风紫墩６８号,120.152496,30.166389
201,97ABC8671968F8D3798BF054671FA326,都匀市首创环保有限公司,黔南布依族苗族自治州,都匀市墨冲镇新坪村,107.471275,26.083153
202,AC163D7A5128784D902E1A656F1321AA,深圳市能源环保有限公司宝安垃圾发电厂(一期),深圳市,深圳市宝安区松岗街道塘下涌老虎坑环境园,113.844193,22.830305
203,E07A3BCFC8AB4FAD38349F407244BEA3,光大环保能源（泗阳）有限公司,宿迁市,江苏省宿迁市泗阳县意杨科技产业园嵩山路18号,118.586090,33.695366
204,F3AB5916A417E48EB99A98707FD52A7F,上海天马再生能源有限公司,上海市,上海市松江区青天路669号,121.229469,31.012812
205,50AAFD4DDABFFDD60DC87A5C4218C302,威海环文再生能源有限公司,威海市,威海市文登区张家产镇天沐路2号,122.106247,37.136337
206,623E1EA9569FAEB998A69372E7B6994F,瀚蓝(黄石)固废处理有限公司,黄石市,黄石市黄金山开发区,114.973053,30.176666
207,3255E390BCC6982211939E62B134935F,瑞金首创环保能源有限公司,赣州市,瑞金市沙洲坝镇清水村,115.998611,25.823963
208,536FDA86F72AAB9D07EE57BE26EC3A11,中节能（合肥）可再生能源有限公司,合肥市,合肥循环经济示范园天工大道西侧,117.500000,31.780001
209,41D2DFB41BC105B34EE89F829193A87F,台州旺能再生资源利用有限公司,台州市,台州市蓬街镇十塘,121.548058,28.548334
210,D35BD56D078B8BAF0ED40A2AE87C832A,安顺绿色动力再生能源有限公司,安顺市,安顺市西秀区轿子山镇,105.936058,26.264614
211,1F145C94054D5FF4D66ECD1307D11B77,庆阳圣元环保电力有限公司,庆阳市,甘肃省庆阳市西峰区肖金镇胡同村生活垃圾焚烧发电厂,107.602646,35.580326
212,4EE8CCE55FAC6A415E3309740A09CC00,湖南惠明环保科技有限公司,郴州市,湖南省郴州市苏仙区马头岭乡板子楼村,113.013390,25.784166
213,E6194ABB0ECA3556E334DB1A64152F16,自贡能投华西环保发电有限公司,自贡市,自贡市沿滩工业集中区兴元路A3-01-01,104.880836,29.189167
214,8F3EAC9171F405F4732B5D2A4D491004,温州永强垃圾发电有限公司,温州市,浙江省温州市龙湾区永中街道度山村,120.791389,27.898333
215,33956EC417CF46B46E47BE43CD7ED4EC,泸州市兴泸环保发展有限公司,泸州市,纳溪区新乐镇长安村9社81号,105.392502,28.726389
216,536FDA86F72AAB9D3808A0A1DEBAFDFC,中节能（肥西）环保能源有限公司,合肥市,肥西县花岗镇蔡冲村新街垃圾填埋场南侧,117.086388,31.691389
217,7C3F449636EBEAE1FC52D0DE92CFC2F1,湘乡现代环保能源有限公司,湘潭市,湖南省湘潭市湘乡市龙洞镇泉湖村湘乡现代环保能源有限公司,112.516083,27.778999
218,54DBD258076E87A0397D8748D1405C39,北京南宫生物质能源有限公司,北京市,北京市大兴区青云店镇南大红门村,116.453888,39.736942
219,49474F673849E1C31FC953AD7A8341CB,忻州市洁晋发电有限公司,忻州市,忻州市忻府区豆罗工业园区,112.703064,38.283890
220,E07A3BCFC8AB4FAD8AB77E179A35100A,北控环境再生能源沭阳有限公司,宿迁市,沭阳县淮河大道西侧,118.786049,34.110798
221,F529A49632043483CEB674209CB29F44,巴中威澳环保发电有限公司,巴中市,巴中市巴州区光辉乡哨台村,106.723053,31.775278
222,F544C07D193E060769777C63F2381F06,广州永兴环保能源有限公司二分厂,广州市,广州市白云区太和镇永兴村李坑生活垃圾焚烧发电厂二厂,113.337219,23.268888
223,4EA3A1FD45F36A33234837918B3A3720,周口市丰泉环保电力有限公司,周口市,周口市川汇区北环路北侧,114.589447,33.556946
224,E8F1C0CE6B187271E3A09627F8616BE6,光大生物能源（怀远）有限公司,蚌埠市,安徽省蚌埠市怀远县荆芡乡,117.111565,32.987110
225,BB3FB34796C605EA0F286835B74C6357,江苏圣元环保电力有限公司,淮安市,江苏省盱眙县古桑街道骚狗山江苏圣元环保电力有限公司,118.484962,32.955246
226,F29BA034EC3DA14BAE3FECC068DCFB51,咸宁市中德环保电力有限公司,咸宁市,咸宁市咸安区向阳湖镇绿山村,114.266670,30.188889
227,FC440AF901A612D7CC8BB2B6F7256599,济源霖林环保能源有限公司,济源市,济源市虎岭产业集聚区虎岭一号线西五三一铁路专用线南,112.545746,35.040600
228,CBB517961CECB27C4C2D1B9794DF1892,临沭光大环保能源有限公司,临沂市,山东省临沭县,118.589996,34.899723
229,B01285E5DE7F5F4653C0F22F43641EFF,成都三峰环保发电有限公司,成都市,成都市双流县九江镇大井社区,103.933868,30.644672
230,2B70DC7FC6D727FE66A59FB01964B2A6,汕头市澄海洁源垃圾发电厂有限公司,汕头市,汕头市澄海区溪南工业区金山路尾,116.788055,23.542500
231,08A06AB7A6A46D545CAFD4F3291FFEE9,瀚蓝（大连）固废处理有限公司,大连市,大连市金州区大魏家街道连丰村600号,121.722221,39.182777
232,C23C9134D2D8B47006C56F2ABF54072D,中山市长青环保热能有限公司（中心组团垃圾焚烧发电三期项目）,中山市,中山市南朗镇蒂峰山中心组团垃圾综合处理基地1号楼,113.506271,22.535078
233,F544C07D193E0607EC9EFEA55331F6CA,广州永兴环保能源有限公司一分厂,广州市,广州市白云区太和镇永兴村李坑生活垃圾焚烧发电厂一厂,113.337219,23.268888
234,DE3681CD588BB5A79EC00790D5AD510B,昆明鑫兴泽环境资源产业有限公司,昆明市,昆明市五华区昆禄公路一公里入口处,102.659721,25.100555
235,648BD846474E7B852583224A2F5F27F4,北京华源惠众环保科技有限公司,北京市,北京市昌平区小汤山镇阿苏卫生活垃圾焚烧发电厂,116.343330,40.159718
236,DE3681CD588BB5A7D0FC0AA388C5CE97,云南绿色能源有限公司,云南省,昆明市西山区海口镇小海口村,102.543053,24.848888
237,F94B6E1D2B3A188CEAB857624D361255,北京高安屯垃圾焚烧有限公司,北京市,北京市朝阳区高安屯北街2号院502号楼,116.612129,39.946968
238,70D48D03508236AFDA1628D52E86810F,天津泰达环保有限公司,天津市,天津市津南区双港镇泰新路1号,117.303329,39.051109
239,3BAF3198C0944D37B6C61EF4F19022FA,无锡锡东环保能源有限公司,无锡市,无锡市锡山区东港镇黄土塘村,120.468887,31.710028
240,AC163D7A5128784DC71350746B7771E5,深圳市深能环保东部有限公司,深圳市,深圳市龙岗区坪地街道四方埔社区环保路1号,114.320556,22.751667
241,AF1CCED6D686DB7A38749E3017C7FEC7,淄博绿能新能源有限公司,淄博市,山东省淄博市临淄区敬仲镇绿能路,118.296936,36.951942
242,27759AA696B692BD6251163F3472B7A6,光大环保能源（陵水）有限公司,海南省,陵水县文罗镇生活垃圾卫生填埋场东南侧,109.929871,18.560169
243,4A80B89CADAE1CCFC8DD63A53D1E31B1,南京环境再生能源有限公司,南京市,南京市浦口区星甸街道董庄路1号,118.433334,32.052776
244,A72A7408C1DC984B1B584D20FB11ED4A,重庆三峰百果园环保发电有限公司,重庆市,重庆市江津区西湖镇青泊村330号,106.396111,29.176390
245,8609CB94471AA9B69BD7D641BECED2FD,福鼎市环境新能源有限公司,福建省,福建省宁德市福鼎市点头镇马洋村王孙亭,120.171432,27.276638
246,E7F46E970398AA9688D3E4E234195FB8,钦州海诺尔环保发电有限责任公司,钦州市,钦南区沙埠镇,108.653053,21.878334
247,F3E34C08C5C84F5A5BA00FF912A81C32,郑州荥锦绿色环保能源有限公司,郑州市,荥阳市建设东路001号,113.406670,34.803333
248,A9C4EA6459B5C415137212415C4FCD7E,鱼台深能环保有限公司,济宁市,济宁市鱼台县经济开发区古亭路北首路东237国道南,116.669662,35.026188
249,3255E390BCC6982229DA1EEBBC3F33F4,信丰粤丰环保电力有限公司,赣州市,信丰县嘉定镇长生村长坑仔094乡道西侧,114.961670,25.379444
250,E2A716AB41E0EE91FC345DA8CFC90519,吉林市双嘉环保能源利用有限公司,吉林市,吉林市珲春北街3588号,126.506668,43.898613
251,70D48D03508236AF80A33AFF7B6F6EFE,天津绿色动力再生能源有限公司,天津市,天津市蓟县别山镇西九户村东北1000米,117.532219,39.974724
252,2B70DC7FC6D727FEC9F718DF9AC03379,汕头市绿色动力再生能源有限公司,汕头市,汕头市潮阳区和平镇竹棚医院旧址,116.497299,23.305750
253,0120B1AE224A2DF69EEB95EBC79139AC,高安意高再生资源热力发电有限公司,宜春市,高安市荷岭镇上寨村黄金城,115.413887,28.278055
254,F3AB5916A417E48EA35BB5CFC643D0F1,上海嘉定再生能源有限公司,上海市,上海市嘉定区外冈镇古塘村688号,121.210716,31.463594
255,50AAFD4DDABFFDD6E1A618E4C72D1F49,威海环境再生能源有限公司,威海市,威海市张村镇前双岛村东南垃圾处理厂,122.001663,37.446430
256,A72A7408C1DC984BBB9C8836BEA651BA,重庆市万州区三峰环保发电有限公司,重庆市,万州区新田镇五溪村1组,108.371437,30.650978
257,7A57E25935FED4B6149B86982CE7D463,烟台润达垃圾处理运营有限公司,烟台市,烟台市福山区,121.089165,37.604443
258,8609CB94471AA9B6D4FF6A1916E25FFB,仙游兴鸿环保电力有限公司,福建省,福建省莆田市仙游县书峰乡鲤岭村新厝66号,118.644173,25.412111
259,7C590086F6D01CADCDA91435184DC7EA,光大环保能源（丹阳）有限公司,镇江市,丹阳市丹北镇胡高路666号,119.016945,32.085835
260,986D7C1B7EBB336F63881A93FA03D74A,和田高能新能源有限公司,和田地区,和田市吉亚乡垃圾处理厂以西,79.838890,36.997223
261,4B8C0090E591106D681B09A520FD61A9,监利旺能环保能源有限公司,荆州市,湖北省监利县红城乡湛港村,112.877998,29.843410
262,006DD9253AB5C1E96DC1F159814555A2,成都市兴蓉隆丰环保发电有限公司,成都市,四川省彭州市隆丰镇大宝村与桂花镇一龙村交界处,103.819168,31.027222
263,607D7BE39E8B49740F400BCC20D88A0C,光大环保能源（灵璧）有限公司,宿州市,安徽省宿州市灵璧县尹集镇,117.465279,33.741669
264,2CE7A8B727E8969DD0D3A4C694C69DBE,德清旺能环保能源有限公司,湖州市,德清县新市镇查亩头枫洋水泥厂,120.230553,30.622499
265,607D7BE39E8B49742CC6F298FD323074,宿州皖能环保电力有限公司,宿州市,宿州市经济开发区南侧宿固路与南外环交口东南侧,117.508610,33.560833
266,13C2D0DCE6FB5F5FE00729C5F53920C6,苍南玉苍伟明环保能源有限公司,温州市,温州龙港市中对口村灵宜公路以南七字山以北,120.483887,27.521805
267,068E652C488E6D01151B4980924F858E,高邮泰达环保有限公司,扬州市,江苏省高邮市龙虬镇兴南村,119.520836,32.858891
268,8F3EAC9171F405F4214937767A475EA5,舟山旺能环保能源有限公司,舟山市,舟山市团鸡山岛,122.090279,29.981945
269,4D34FB6395721636CB120C5AD920FCAE,北京绿色动力再生能源有限公司（密云垃圾焚烧厂）,北京市,北京市密云区巨各庄镇政府208室-27,116.943924,40.361023
270,661B669BFE73BF30169ABBE50287B5D4,临泉皖能环保电力有限公司,阜阳市,临泉县牛庄乡应湾村,115.569725,33.023613
271,8B7D5BB61175D20FA31EC84D620EDC08,南宁市三峰能源有限公司,南宁市,兴宁区南梧公路189号,108.647224,22.978611
272,8609CB94471AA9B68190F5F7BEA6445E,保罗清洁能源（福州）有限公司,福建省,福州晋安区新店镇红庙岭2号,119.307686,26.172436
273,1DCC00CE2B7896837C35BEC36F1DD2E3,广州环投花城环保能源有限公司（广州市第五资源热力电厂）,广州市,花都区赤坭镇中心街19号之一,113.026390,23.388056
274,3BAF3198C0944D375FEBAF4E75DCF6B0,光大环保能源（江阴）有限公司,无锡市,江阴市月城镇环山路18号,120.216942,31.832500
275,2EE2020EF2CF8ACD5E41FA6C7C8A730D,黄山泰达环保有限公司（垃圾焚烧发电）,黄山市,黄山市徽州区循环经济园昌盛路99号,118.386108,29.822914
276,7C590086F6D01CAD435A8739D0C8973E,句容绿色动力再生能源有限公司,镇江市,句容经济开发区姚徐村,119.085648,31.158056
277,A23FE7B85E1D483B2D1AD97C36CFA198,泰安北控环境能源开发有限公司（原泰安中科环保电力）,泰安市,山东岱岳经济开发区,116.984909,36.184505
278,F3AB5916A417E48E34210582D4D9DA0A,上海黎明资源再利用有限公司,上海市,上海市浦东新区浩江路259号,121.713333,31.285000
279,BB3FB34796C605EA352DB3CEC6FDEDA9,光大城乡再生能源（淮安）有限公司,淮安市,淮安市淮阴区淮河东路707号,119.134659,33.661861
280,9A88B06566B351E29C10A72FC7E92191,邹平光大环保能源有限公司,滨州市,山东省滨州市邹平县韩店镇西北,117.680664,36.983768
281,4DD62AE0499709BCDE394F109B1D3E41,东莞市科伟环保电力有限公司,东莞市,东莞市横沥镇西路,113.932220,23.042784
282,DE3681CD588BB5A72175506922634B8E,昆明丰德环保电力有限公司,云南省,昆明市呈贡新区吴家营乡段家营村老荒山,102.894447,24.858334
283,9B4FA784190C914A473A76350624684B,绍兴市再生能源发展有限公司,绍兴市,浙江省绍兴市柯桥区滨海工业区钱滨线,120.705002,30.262222
284,FFFCDA5F7E01081031E716EA7E36B708,遂宁川能能源有限公司,遂宁市,遂宁市船山区龙凤镇灵龟村,105.644150,30.393801
285,A5AAC0C10336F8125750CE1BDEB8A8CE,绵阳中科绵投环境服务有限公司绵阳生活垃圾焚烧发电厂,绵阳市,绵阳市涪城区玉皇镇坚堡梁村八社,104.716827,31.300850
286,9FB7D80270AAB72D5ECD3EEFB91F83CB,光大环保能源（益阳）有限公司,益阳市,湖南省益阳市谢林港镇谢林港村,112.267242,28.562815
287,7A57E25935FED4B6A398A847E584A560,招远盛运环保电力有限公司,烟台市,招远市大秦家街道梧桐夼羊坡岭,120.513336,37.355278
288,4DD62AE0499709BC075A28BAB48E4B04,东莞市博海环保资源开发有限公司,东莞市,东莞市厚街镇厚街东二环路6号,113.677040,22.898331
289,E312BAED4006540650C2A00F748E3553,榆树市鸿大环保电力有限公司,长春市,吉林省长春市榆树市城郊街道立新村,126.536835,44.857883
290,8F3EAC9171F405F472F74B69536E7178,温岭瀚洋资源电力有限公司,台州市,温岭市,121.388397,28.294300
291,8F3EAC9171F405F41859F6CDFED36A7B,浙江伟明环保股份有限公司,温州市,鹿城区山福镇临江发电厂,120.549400,28.136347
292,661B669BFE73BF3050D96586AACF0887,颍上皖能环保电力有限公司,阜阳市,颍上县循环经济园,116.281364,32.733093
293,86716576A77900D110E472D869DDAE05,桐城盛运环保电力有限公司,安庆市,安徽省安庆市桐城市龙腾街道办事处和平组叶庄组,116.971016,31.065453
294,3BAF3198C0944D376C199DCEC75CF42D,无锡益多环保热电有限公司,无锡市,江苏省无锡市新吴区新安城南路158号,120.378334,31.490833
295,AC700F82BE361D1621215AF8EC2A056A,织金县生活垃圾焚烧发电厂（织金菲达绿色能源有限公司）,毕节地区,贵州省织金县八步街道土锅村,105.801544,26.781677
296,D2F377249E571A963913B41CD3400848,光大环保能源（永州）有限公司,永州市,湖南省永州市零陵区接履桥镇（永州市静脉产业园内）,111.693336,26.351667
297,E6194ABB0ECA35565973B53FCEF6F5DB,自贡川能环保发电有限公司,自贡市,四川省自贡市沿滩区九洪乡莲花村九组,104.885002,29.187222
298,9727FC0EA894BD879796BFC7DEB13F33,阜宁协鑫再生能源发电有限公司,盐城市,阜宁县澳洋工业园区纬一路88号,119.670555,33.820000
299,5D1BBF77DB3C223F9CAE1A63825B3BD1,德阳和新环保发电有限责任公司,德阳市,德阳市旌阳区和新镇永兴村16组,104.438889,31.045834
300,2A6045384F72F941786A2F2A7AD6B09E,茌平县国环再生能源有限公司,聊城市,茌平县杜郎口何屯村北1公里,116.321663,36.599724
301,81873C5343557B55D4C68909C604D707,光大环保能源(三亚)有限公司（垃圾焚烧发电厂）,三亚市,三亚市天涯区凤凰镇水蛟村工业园路光大一横路1号,109.422775,18.358334
302,BF38658A0D7F8A1B1BE93889857F7BAF,桂林深能环保有限公司,桂林市,临桂镇水口村山口生活垃圾填埋场内,110.123611,25.308611
303,8609CB94471AA9B66D4F2106E0E109FA,厦门市环境能源投资发展有限公司（翔安厂）,福建省,厦门市翔安区新圩镇诗林中路1501-1515号,118.275681,24.725901
304,AE161A7AB1D01B42E82C32EF48864962,茂名永诚环保资源开发有限公司,茂名市,茂名市茂南区公馆镇河之口,110.829445,21.711111
305,9AE0E06952A9378719188E264F0CA994,常州绿色动力环保热电有限公司,常州市,常州市武进区牛塘镇青云村,119.875839,31.739470
306,18B72E1FFFEED6A15E5A6435EA7EAE7F,万年县伟明环保能源有限公司,上饶市,上饶市万年县石镇镇凤巢工业园区,116.589996,28.490000
307,2FD86C1B7A1ED71BAB659454744886B9,定远皖能环保电力有限公司,滁州市,安徽省滁州市定远县范岗乡定明路范岗林场,117.742294,32.632252
308,7A57E25935FED4B6A28290328376F891,烟台市牟平区垃圾综合处理有限公司,烟台市,烟台市牟平区武宁街道王从曲村对面,121.528572,37.332630
309,F82C78EC6B17ED8C906376DB63F0E35E,光大城乡再生能源（社旗）有限公司,南阳市,河南省南阳市社旗县产业集聚区,112.953201,33.018829
310,006DD9253AB5C1E91E87BD07D0C56780,成都市兴蓉万兴环保发电有限公司,成都市,成都市龙泉驿区洛带镇鲤鱼村,104.362785,30.638592
311,2FC51BC0AB25E921F9CC31433CD8B172,青岛西海岸康恒环保能源有限公司,青岛市,山东省青岛市黄岛区胶南街道孟家洼子村村西,119.959702,35.940582
312,8885F9EE17CD295E356D9A3B6441A0B8,铜仁海创环境工程有限责任公司（垃圾焚烧）,铜仁地区,铜仁市碧江区河西办事处新庄村铜仁海螺水泥厂厂区内,109.135559,27.716110
313,8F3EAC9171F405F4ED8FD3695A94F655,浙江诸暨八方热电有限责任公司,绍兴市,诸暨市,120.211388,29.748056
314,4588CB97B8AEEC961AF019E4492E3A8C,临安绿能环保发电有限公司,杭州市,杭州临安市锦南街道上杨路59号,119.713333,30.186111
315,8F3EAC9171F405F404499DBC2CD5D072,嘉兴市绿色能源有限公司,嘉兴市,嘉兴市南湖区大桥镇步云花园路43号,120.902710,30.755060
316,C8087DE910B10C5AE782973C86DAD2B7,松原鑫祥新能源有限公司,松原市,松原市宁江区雅达虹工业集中区,124.847780,45.266945
317,8609CB94471AA9B6203B3406667BEF0D,福州天楹环保能源有限公司,福建省,福州市连江县东湖镇飞石村,119.492775,26.282778
318,61B0BEAADC3BD035F90E7E37B2035CCE,中节能萍乡环保能源有限公司,萍乡市,萍乡市湘东区下埠镇杞木村,113.690346,27.610088
319,6968EB865B4628D2F42D8ADFB8480670,巨鹿县聚力环保有限公司,邢台市,巨鹿县小吕寨镇西3000米,114.917931,37.243576
320,DE3681CD588BB5A7F47EB25861694E94,昆明中电环保电力有限公司,云南省,昆明,102.853889,24.983612
321,C37960398A6B31154236C845C97E1B99,魏县德尚环保有限公司,邯郸市,河北省邯郸市魏县经济开发区经三路南,114.994026,36.315857
322,C23C9134D2D8B470DF691584B9328C3D,中山市天乙能源有限公司（北部组团垃圾焚烧发电厂）,中山市,中山市黄圃镇吴栏村乌珠山旁,113.383888,22.727777
323,A9CFDFCE08B06708259466531893077C,常熟浦发热电能源有限公司,苏州市,辛庄镇南湖农场浦发路,120.654724,31.591389
324,2FC51BC0AB25E9218FEF8C5E5444DD25,光大环保能源（平度）有限公司,青岛市,青岛市平度市田庄镇光大路9号,119.709724,36.755001
325,5AC8CE20B62DF98A380F37AB0320F09A,武汉绿色动力再生能源有限公司,武汉市,武汉市化工区八吉府街绿色大道18号,114.501663,30.635000
326,C541F3ABC7FF20C472C408ED2CFE0176,睢宁宝源新能源发电有限公司,徐州市,江苏省徐州市睢宁县桃园镇苏河村（原朱集砖瓦厂）,117.705002,33.770000
327,0A796E6BF5CB3B8D5790DB1D5A704E44,西昌三峰环保发电有限公司,凉山彝族自治州,西昌市太和镇麻柳村4组及开元乡甘洛村1组,102.140869,27.914919
328,A9CFDFCE08B06708D5855147E2F10838,苏州吴江光大环保能源有限公司,苏州市,苏州市吴江太湖新城汤华村（苏同黎公路西侧）,120.712219,31.078611
329,BB3FB34796C605EAE5708085484123D3,淮安中科环保电力有限公司,淮安市,淮安工业园区通衢西道81号,119.012604,33.417301
330,BBE6F3C45C565E754BF4CFAD932D1D22,内江海诺尔垃圾发电有限责任公司,内江市,内江市东兴区永兴镇闻家冲村,105.169998,29.459999
331,006DD9253AB5C1E9C04908054D1D7720,中节能（金堂）环保能源有限公司,成都市,四川省成都市金堂县淮口镇四川金堂工业园内,104.575546,30.709639
332,8F3EAC9171F405F464B5AC17926EE47F,宁波世茂能源股份有限公司（宁波众茂姚北热电有限公司）,宁波市,余姚市,121.070000,30.260000
333,8F3EAC9171F405F45655D76A2F7C4613,慈溪中科众茂环保热电有限公司,宁波市,浙江省宁波市慈溪市慈溪滨海经济开发区方淞线1188号,121.529449,30.149626
334,24CFF171C301C6AF5987F6306987FCBD,南昌首创环保能源有限公司,南昌市,南昌市进贤县泉岭乡梁东村,116.039444,28.404167
335,246CE36D3EB906DB16E9D2CFC8B16A88,天津绿动环保能源有限公司,天津市,天津市宁河区廉庄镇卫星路北侧,117.753891,39.432220
336,6BC786A9FB7E8B8ABDA0A2CCFCBF7F3D,汕尾三峰环保发电有限公司,汕尾市,汕尾海丰县可塘镇双贵山,115.504700,22.969601
337,4F96B144B2DF59B68A4E80EDB6B3CDA9,长治首钢生物质能源有限公司,长治市,长治市潞洲区黄碾镇长治首钢生物质能源有限公司,113.065277,36.343056
338,8609CB94471AA9B65EBCC6F376A77BB5,漳州环境再生能源有限公司,福建省,龙海市榜山镇雩林村漳州环境再生能源有限公司,117.752434,24.464689
339,CE1CB6A0B9A78F119D08821EA5F39146,山东郓城圣元环保电力有限公司,荷泽市,山东省郓城县张营镇二十里铺村西,116.059723,35.624718
340,7E0A8CFB64F58AFA1B20C775AEC1C216,北京首钢生物质能源科技有限公司,北京市,北京市门头沟区潭柘寺镇鲁家山首钢鲁矿南区,115.748055,40.009167
341,8609CB94471AA9B69861AB13E04A67B0,瀚蓝（惠安）固废处理有限公司,福建省,惠安县山霞镇按固村,118.850555,24.946941
342,C541F3ABC7FF20C4BD504C12A553DE56,光大环保能源（邳州）有限公司,徐州市,邳州市经济开发区平果西路,117.942070,34.396355
343,F347F64E2A74DF1FDA209C8F81DC0686,北京京环绿谷环境管理有限公司（平谷区生活垃圾综合处理厂）,北京市,北京市平谷区东高村镇南宅村西南500米,117.036942,40.056946
344,A9C4EA6459B5C41575B3A56EB3CB38A7,金乡盛运环保电力有限公司,济宁市,羊山镇政府驻地,116.255882,35.137669
345,9A88B06566B351E2426F67331142A423,滨州天楹环保能源有限公司,滨州市,滨州市滨城区滨北街道办事处滨孤路以西滨北农场,118.010002,37.556110
346,5AC8CE20B62DF98AE30955BE6BC6E5BE,武汉深能环保新沟垃圾发电有限公司,武汉市,武汉市东西湖区新沟镇惠安大道129号,113.969444,30.686941
347,C541F3ABC7FF20C43748F393A4EEFC1E,徐州协鑫环保能源有限公司,徐州市,徐州经济技术开发区开荆山路66号,117.297501,34.302502
348,5F537522C722293B8FD9685B8193F71B,武义伟明环保能源有限公司,金华市,武义县白洋街道官山后垅生活垃圾填埋场,119.609024,28.839098
349,8F3EAC9171F405F44D40898049ADF2FF,浙江新都绿色能源有限公司,嘉兴市,桐乡市崇福镇五丰村南长浜,120.399338,30.537460
350,0D5F210D2E72049F40625E6BD6D1E496,临朐邑清环保能源有限公司,潍坊市,临朐县龙岗镇安家庄村南垃圾处理场,118.581947,36.581944
351,2DC9CE32DE02C6B65F8E5AE3C65E8E09,广西贵港北控水务环保有限公司,贵港市,广西贵港市港北区大圩镇西江农场七队,109.745110,23.175301
352,72B79184FE8F276A44CEB4D2D953A0FA,呼和浩特嘉盛新能源有限公司,呼和浩特市,土默特左旗兵州亥区域服务中心袄太村西3公里,111.393242,40.689568
353,F3E34C08C5C84F5A36572CA214C78869,光大环保能源（新郑）有限公司,郑州市,河南省新郑市辛店镇贾咀村,113.589996,34.410000
354,AE161A7AB1D01B4226124F673B72FD68,茂名粤丰环保电力有限公司,茂名市,广东省茂名市电白区林头镇火莲塘,111.059822,21.592169
355,AEB93AA3E68F0DAA5BC09F59DFB88F43,光大环保能源（宁波）有限公司,宁波市,浙江省宁波市北仑区郭巨街道长浦一号,122.113609,29.905910
356,6BB71200415564E01EA22CBA78114736,双城市格瑞电力有限公司,黑龙江省,双城市幸福街道久援村南大洼,126.613609,45.591110
357,26E07A88ECC5B0956AC4C3741FBE8FDA,吉林省鑫祥有限责任公司,长春市,吉林省长春市宽城区奋进乡小南村,125.358330,43.926666
358,A02B6E07B74BDBF132C4889BBC2C18AB,广元博能再生能源有限公司,广元市,广元经济技术开发区盘龙镇南山村三组,105.782242,32.396881
359,4A80B89CADAE1CCF09F69221A6EF2884,光大环保能源（南京）有限公司,南京市,南京市江宁区江宁街道静脉产业园1号,118.563614,31.766945
360,4A80B89CADAE1CCFDC2D987F138C4C59,光大再生能源（南京）有限公司,南京市,江苏省南京市高淳区东坝镇新源路1号,119.071388,31.303612
361,8609CB94471AA9B68F6527AD60593995,莆田市圣元环保电力有限公司,福建省,莆田市秀屿区东庄镇锦山村胜利围垦垃圾焚烧发电厂,119.045303,25.261900
362,AC163D7A5128784DAF376C05738B4E30,深圳广业环保再生能源有限公司,深圳市,广东省深圳市龙岗区平湖街道富安大道38号,114.095558,22.684444
363,45AA0794393DE951078FC40F9A94EFE3,石家庄市冀粤生物质能发电有限公司,石家庄市,石家庄装备制造基地元氏区营里村东,114.521667,37.887779
364,FB26BB9222E532EBC1354E4A9BFB2294,光大环保能源（济南）有限公司,济南市,济南市济阳县孙耿镇济南市生活废弃物处理中心北侧,117.008064,36.868889
365,C18E59218D21356A20C570BE02600D7C,珠海市城市固体废弃物处理中心,珠海市,广东省珠海市香洲区前山南溪西坑尾横坑,113.498611,22.307222
366,0D5F210D2E72049F164992252EF60388,高密利朗明德环保科技有限公司,潍坊市,高密市密水街道周家屯村西明德路88号,119.699722,36.339443
367,01183E1539DD4FB27361509B5883F968,浙江华川深能环保有限公司,金华市,义乌市,120.014999,29.149166
368,AA24116ECBF053B7AFD5CC896C00E7EB,北京绿色动力环保有限公司,北京市,北京市通州区永乐店镇德仁务中街村521号,116.633331,39.916668
369,8A986562EB0E5D40549D4856564B94F8,德州绿能电力有限公司,德州市,运河经济开发区,116.221625,37.432644
370,2A6045384F72F94156F9632FC066A87F,临清德运环保能源有限公司,聊城市,临清市先锋办事处管辛庄村西570m,116.804436,36.883610
371,C84AC227BD63921A7D6B88CB4482BF84,光大城乡再生能源（夏邑）有限公司,商丘市,河南省商丘市夏邑县胡桥乡李楼村东侧,116.168056,34.164167
372,516DD3A24ADEF30DF10A7CCE362495E1,瀚蓝（廊坊）固废处理有限公司,廊坊市,安次区落垈镇苏庄村,116.828499,39.432999
373,B90386592391E809CDBF43CC82CBF89B,惠州广惠能源有限公司,惠州市,广东省惠州市惠城区龙丰共联路,114.349442,23.105556
374,13C2D0DCE6FB5F5F269EC60FCA37A0AD,瑞安市海滨伟明环保能源有限公司,温州市,上望街道垃圾填埋场内,120.700836,27.718910
375,AC700F82BE361D16F82D6F9C794E8B43,毕节市中心城区生活垃圾焚烧发电厂（中节能毕节环保能源有限公司）,毕节地区,贵州省毕节市金海湖新区,105.464447,27.339441
376,DC2E8BB38BD406AD02F11B13E648B943,辽源天楹环保能源有限公司,辽源市,辽源市龙山区寿山镇大寿村,125.243370,42.916451
377,85B6CA827F48D231DEE50CDA5B123AFB,东莞市东实新能源有限公司,东莞市,东莞市麻涌镇大步村海心沙岛,113.590836,23.009722
378,50AAFD4DDABFFDD6C17C6EBFCA30FAF9,荣成市长青环保能源有限公司,威海市,荣成市凭海西路268号,122.383331,37.107224
379,AF1CCED6D686DB7AEE3B3F5C0B1629BA,淄博绿能环保能源有限公司,淄博市,山东省淄博市淄川区昆仑镇小范村村委南侧,117.836113,36.598610
380,C01E038A9B0B5CFB1BA9688C1382D3E2,北京北控雁栖再生能源科技有限公司,北京市,北京市怀柔区庙城镇孙史山村北侧,116.596390,40.283890
381,13C2D0DCE6FB5F5FDF8FC4CC39CEEA9A,苍南伟明环保能源有限公司,温州市,浙江省苍南县龙港镇中对口村灵宜公路以南七字山以北,120.483612,27.521389
382,2B70DC7FC6D727FE33021D4B8EC764E7,汕头市恒建科创生物质发电有限公司,汕头市,广东省汕头市金平区鮀莲街道雷打石片区,116.594864,23.447166
383,27759AA696B692BDEE1A38FC94EA6789,琼海市生活垃圾焚烧厂,海南省,琼海市泮水乡,110.456497,19.308445
384,0D5F210D2E72049F57D4BED292566EEB,诸城宝源新能源发电有限公司,潍坊市,诸城市人民东路7988号,119.481857,35.992863
385,FD46DC84DEB2A8EFDBB4CFCCA6486086,新泰光大环保能源有限公司,泰安市,新泰市新甫街道办事处龙山村北侧,117.717781,35.974724
386,88B1F700BDB0A5E04A1CE361D07A4750,如东天楹环保能源有限公司,南通市,如东县大豫镇东安科技园,121.386665,32.259445
387,187BB3F9C98925BFF1CAC32EC6D2CD5C,岳阳锦能环境绿色能源有限公司,岳阳市,云溪区陆城镇径港村,113.324165,29.615833
388,7A57E25935FED4B684AFB9828977D18A,蓬莱蔚阳余热发电有限公司,烟台市,蓬莱市北沟镇孙陶村蓬莱蔚阳水泥有限公司内,120.620000,37.702778
389,2FC51BC0AB25E921182F0FC3CFB59304,中节能（莱西）环保能源有限公司,青岛市,青岛市莱西市姜山镇宋家泽口村北,120.555367,36.728470
390,86716576A77900D1ABFD71DB2C5FE41D,安庆皖能中科环保电力有限公司,安庆市,安徽省安庆市大观区山口乡联胜村,116.885635,30.526550
391,068E652C488E6D01A2160B57B164DA48,扬州泰达环保有限公司,扬州市,扬州市邗江区杨庙镇赵庄村环保大道1号,119.307503,32.461388
392,AEB93AA3E68F0DAA8E784F48708546E9,宁波明州环境能源有限公司,宁波市,宁波市海曙区洞桥镇宣裴村裴岙,121.398331,29.748333
393,8609CB94471AA9B6957CA634919FEE5F,瀚蓝（福清）固废处理有限公司,福建省,福清市龙江街道苍霞村西南山谷1公里处,119.366310,25.678139
394,59767CBE8A83398DA40D875375291E49,中节能（涞水）环保能源有限公司,保定市,河北省保定市涞水县胡家庄乡南辛庄村村东,115.707469,39.316531
395,5C33C447911D67667639598275A436EE,红安绿色动力再生能源有限公司,黄冈市,湖北省黄冈市红安县觅儿镇开发区5号路东段,114.598053,31.052778
396,97DE461A8C44A0DA02863F97271A62A1,衡阳永清环保能源有限公司,衡阳市,湖南省衡阳市场衡阳县樟木乡塔兴村,112.614441,27.024445
397,59767CBE8A83398DEE9E039C33529FF7,中节能（保定）环保能源有限公司,保定市,保定市清苑区孙村乡大侯村南,115.629440,38.833057
398,DE3681CD588BB5A7FE8119537E02B037,大理三峰再生能源发电有限公司,云南省,大理市海东镇杨柳村,100.275650,25.641197
399,866B66AF0CE56CB29123B45A7062EC34,连云港晨兴环保产业有限公司,连云港市,连云港大浦工业区云桥路20号,119.212776,34.680832
400,9727FC0EA894BD8702BA6D9585D0C4E4,江苏大吉环保能源大丰有限公司,盐城市,盐城市大丰区草庙镇川东工业集中区,120.731941,33.025833
401,187BB3F9C98925BF1DC38212D2F2F2FB,光大现代环保能源（汨罗）有限公司,岳阳市,岳阳市汨罗市新市镇新桥村,113.173981,28.753824
402,AC163D7A5128784D073A0387AD0959E1,深圳市能源环保有限公司宝安垃圾发电厂(二期),深圳市,深圳市宝安区松岗街道塘下涌老虎坑环境园,113.843620,22.831684
403,9727FC0EA894BD878B87328252D5F6AA,江苏大吉环保能源滨海有限公司,盐城市,江苏大吉环保能源滨海有限公司,119.681664,33.960556
404,5D1BBF77DB3C223F968827F6B1B72F55,光大城乡再生能源（绵竹）有限公司,德阳市,四川省德阳市绵竹市拱星镇,104.224998,31.433056
405,AC163D7A5128784DD7908C4AA4BF3A8E,深圳市天楹环保能源有限公司,深圳市,深圳市龙岗区平湖街道富安大道38号,114.097221,22.684166
406,C936FF0637CF6AA845BE3D566E2D087F,雅安川能环保能源发电有限公司,雅安市,四川省雅安市雨城区草坝镇羊老坪,103.121719,29.938808
407,E8F1C0CE6B18727124370ED3AA2CB269,蚌埠绿色动力再生能源有限公司,蚌埠市,蚌埠市龙子湖区李楼乡垃圾填埋场B库区,117.472725,32.894890
408,8F3EAC9171F405F450E227B9A4406B42,海宁绿色动力再生能源有限公司,嘉兴市,海宁市盐官镇郭店村观潮大道888号,120.535280,30.460833
409,710ED230A1404DE77D46B1BD1B209C56,沈阳新基环保有限公司,沈阳市,辽宁省沈阳市沈阳市苏家屯区陈相街道塔山社区,123.000000,41.000000
410,EA0AB6D4332D661143BDFB200C09750E,黔西南州兴义市鸿大环保电力有限公司,黔西南布依族苗族自治州,贵州省兴义市郑屯镇绒泥村,105.105431,25.136965
411,88E7449EC2695639FD39BA2002C0A23A,汾阳中科渊昌再生能源有限公司,吕梁市,汾阳中科渊昌再生能源有限公司,111.811340,37.223331
412,DD8AFFD47EC883FF6E9E22C5EEFB4ACD,玉林川能华西环保发电有限公司,玉林市,玉林市玉州区仁厚镇上罗村玉石公路南侧（玉林市垃圾无害化处理厂内）,110.018867,22.667866
413,8609CB94471AA9B650932AF5A832921E,瀚蓝（安溪）固废处理有限公司,福建省,福建省泉州市安溪县城厢镇涝港村,118.222198,25.046455
414,BB3FB34796C605EA3221755F934C351B,淮安零碳能源环保科技有限公司,淮安市,涟水县大东镇,119.400833,33.882222
415,CB9D78740C1F925EA2A051271CB056A7,承德环能热电有限责任公司,承德市,河北省承德市双桥区大石庙镇太平庄社区居委会大石庙镇太平庄村,117.979721,40.886944
416,C9D36D642BD61777F1ACD88474A8F087,泰州绿色动力再生能源有限公司,泰州市,泰州市农业开发区东南环路1号,120.032700,32.546001
417,6BB71200415564E0FDAB7D93ACD4A6E8,伊春中科环保电力有限公司,黑龙江省,黑龙江省伊春市伊春区循环经济园区内,127.703890,46.472500
418,54DBD258076E87A0FA858451CA93D31E,北京朝京环保能源科技股份有限公司,北京市,北京市朝阳区金盏乡高安屯（北京市朝阳区循环经济产业园内）,116.615089,39.946945
419,922BEDBE9E3F13904530B5B8AB23095B,通化国电龙源环境技术有限公司,通化市,通化市二道江乡二道江区二道江乡二道江村,126.028809,41.803337
420,A9CFDFCE08B06708E05237F7F72B2CC2,常熟浦发第二热电能源有限公司,苏州市,沿江开发区长春路103号,121.021996,31.746124
421,2CE7A8B727E8969D951F7937B764F58E,安吉旺能再生资源利用有限公司,湖州市,湖州市安吉县递铺镇长弄口,119.715600,30.676400
422,2A6045384F72F941602CB5B658021008,聊城康达垃圾处理有限公司,聊城市,聊城市西外环路以西聊堂路以北,115.882774,36.473057
423,CBB517961CECB27CDC6AEB272C0E5E82,中节能（郯城）环保能源有限公司,临沂市,山东省临沂市郯城县胜利镇西500米,118.239723,34.685001
424,C7CE40F5BE1281BA1998785BCCDC3313,广东顺控环境投资有限公司,广东省,右滩村象山尾,113.076248,22.786551
425,C9D36D642BD61777BADC9129EEF404EC,泰州京城环保产业有限公司,泰州市,兴化市昌荣镇存德村,120.048073,33.021732
426,1DCC00CE2B789683C6D44E496320B71E,广州环投增城环保能源有限公司,广州市,广州市增城区仙村镇碧潭村五叠岭,113.716110,23.208055
427,4588CB97B8AEEC9606C470540EFE69AA,杭州萧山城市绿色能源有限公司,杭州市,杭州市大江东产业集聚区围垦外六工段,120.506935,30.371666
428,0D5F210D2E72049FA90455042DE6F7BF,光大环保能源（寿光）有限公司,潍坊市,山东省寿光市羊口镇官台村西北,118.769447,37.194443
429,A0E018B75B5A7777102794151CD69506,东营黄河三角洲三峰生态能源有限公司,东营市,山东省东营市东营经济开发区新材料工业园区钱塘江路9号,118.864441,37.416111
430,F45EE7ADAB6E73A3BD1973BD044ED187,定州市瑞泉固废处理有限公司,定州,河北省定州市大奇连村旧址,114.965836,38.576946
431,30AB956A386206493827F7159B5BD943,白银三峰环保发电有限公司,白银市,白银市白银区赵家窑,104.265831,36.550835
432,068E652C488E6D0121ADF8B855F7D78B,扬州天楹环保能源有限公司,扬州市,江都区东郊居委会工农路25号,116.308334,33.186390
433,70D48D03508236AF9233E1B013F4BBD8,天津滨海环保产业发展有限公司（天津滨海新区垃圾焚烧发电厂）,天津市,汉沽塘汉路88号,117.736115,39.180557
434,8F3EAC9171F405F42A37687D81FAADC2,温州市瓯海伟明垃圾发电有限公司,温州市,瓯海区南白象街道金竹村东庄,120.658610,27.942223
435,957564E5509E9F0A1B80AAF24A0B0346,太原康恒再生能源有限公司,太原市,太原市清徐县柳杜乡东南社村太原市循环经济环卫产业基地内,112.312271,37.479790
436,2A6045384F72F941AF63AA01F52E58A3,冠县国环垃圾处理有限公司,聊城市,冠县烟庄街道办事处东十里营村东北2000米,115.516388,36.457500
437,C9A6EA6C7C4B6E69493332C6C6684AD8,光大城乡再生能源（钟祥）有限公司,荆门市,湖北省荆门市钟祥市长滩镇青龙鞍村二组88号,112.359169,31.716389
438,2FC51BC0AB25E921BA9F01B4E327487F,青岛环境再生能源有限公司,青岛市,红岛经济区河套街道小涧西社区,120.157501,36.288334
439,7C590086F6D01CADD94642405B916CB5,光大环保能源（镇江）有限公司,镇江市,镇江新区新材料产业园越河街218号,119.602776,32.162777
440,8609CB94471AA9B686F8709F4CE4E7F1,福州红庙岭垃圾焚烧发电有限公司,福建省,福州晋安区新店镇红庙岭2号,119.307686,26.172436
441,A1B4A43FDBD3AACDD5C7EB26C4B81004,寿县绿色东方新能源有限责任公司,淮南市,安徽省淮南市寿县堰口镇魏岗村,116.786392,32.414165
442,79A7C089FC90F6742D93FC94D9ABAE1F,四平中科能源环保有限公司,四平市,四平市铁西区经济循环示范区,124.373337,43.183334
443,32852A2A43E8C0033EC59B12762ED2DC,芜湖中电环保发电有限公司,芜湖市,芜湖市三山区高安乡镇,118.153198,31.218000
444,821888A8683A862372CCA81403D73790,洋县海创环保科技有限责任公司（垃圾焚烧）,汉中市,陕西省汉中市洋县谢村镇,107.453064,33.198868
445,9223F88E53E01305460EAB1C8D0648D0,赤峰市三峰环保能源有限公司,赤峰市,赤峰市红山区曲家沟卫生填埋场南侧,119.018890,42.241390
446,A72A7408C1DC984B0DA6EF9B81CA2BE1,重庆市永川区三峰环保发电有限公司,重庆市,重庆市永川区陈食街道芋荷湾村罗盘沟,106.020103,29.296070
447,4EA3A1FD45F36A330F3B7145BEF71E24,光大环保能源（太康）有限公司,周口市,太康县毛庄镇产业集聚区纺织路东侧,114.999725,34.012501
448,13C2D0DCE6FB5F5F0B859A87EE04FBEB,永嘉绿色动力再生能源有限公司,温州市,永嘉县瓯北三江街道后江村,120.709198,28.057800
449,8609CB94471AA9B6D3DBF85BA182DFEC,三明市金利亚环保科技投资有限公司,福建省,福建省三明市三元区莘口镇黄砂村渡头平红滩,117.502022,26.199448
450,27759AA696B692BDC454C7A8BB38D882,中电国际新能源海南有限公司老城开发区海口环保发电厂（二期）,海南省,澄迈县老城开发区仲音南路,110.070305,19.929972
451,88B1F700BDB0A5E077B33E544ADF1025,海安天楹环保能源有限公司,南通市,江苏省海安县高新区达欣大道28号,120.449997,32.548889
452,CBB517961CECB27CDFEB9A968224F81D,莒南天楹环保能源有限公司,临沂市,莒南县十字路街道王家庄子村东南,118.873245,35.166096
453,B90386592391E8099FF2AFD45E214ADB,光大环保能源（龙门）有限公司,惠州市,龙门县龙华镇大坪村坪顶,114.229721,23.669441
454,4EC32E5E10CC94A7E1D6755F0A834C54,瀚蓝（饶平）固废处理有限公司,潮州市,饶平县黄冈镇上林社区宝斗石坑洼地,117.018616,23.705620
455,F3AB5916A417E48E4DDD56C9D2A0AD8B,上海金山环境再生能源有限公司,上海市,金山区海金路728号,121.285835,30.713612
456,4EC32E5E10CC94A734E32331754754B8,潮州深能环保有限公司（潮安垃圾焚烧发电厂）,潮州市,潮州市潮安区沙溪镇门第岭埔,116.575279,23.488333
457,BAC9A4022E94A994514C2EB6E1038119,光大环保能源（蓝田）有限公司,西安市,西安市蓝田县前卫镇王庄村北侧,109.193741,34.135838
458,88B1F700BDB0A5E016427EF6414E9E97,上海电气环保热电（南通）有限公司,南通市,江苏省如皋市石庄镇江边工业园区绥江路5号,120.524719,32.087776
459,BA11410461A83F15F5A068C3B9E2105E,中节能（秦皇岛）环保能源有限公司,秦皇岛市,海港区东港镇秦山路71号,119.696114,39.983891
460,0120B1AE224A2DF69D61B2253DFF3420,上高海创环保科技有限公司,宜春市,江西省宜春市上高县黄金堆工业园320国道900公桩旁,115.023804,28.286837
461,B93B47F2D75838505A64121665DA05C1,光大环保能源（海盐）有限公司,嘉兴市,海盐县西塘桥街道经济开发区棕榈路88号,121.030685,30.592854
462,2CE7A8B727E8969D8E82148C19FAA15D,长兴新城环保有限公司,湖州市,浙江省湖州市长兴县夹浦镇,119.934303,31.082512
463,A9CFDFCE08B06708F12AEDDB376057C7,昆山鹿城垃圾发电有限公司,苏州市,昆山市巴城镇石牌街道夏东村兆良路999号,121.035004,31.321388
464,CBFBFC54D44C173686506C14C9BE7FCC,仁怀中电环保发电有限公司,遵义市,贵州省遵义市仁怀市长岗镇堰塘坎村,106.394516,27.790720
465,A9CFDFCE08B06708A69AD7417D9500C8,光大环保能源(苏州)有限公司,苏州市,苏州市木渎镇七子村南侧万禄路189号,120.545883,31.243919
466,CE1CB6A0B9A78F11FD2C8C9E7BA0DF2A,山东曹县圣元环保电力有限公司,荷泽市,曹县磐石办事处姚寨村,115.586983,34.798058
467,0A9D4875042FEC97A58059A43614D123,光大环保能源（莱芜）有限公司,济南市,山东省济南市莱芜区牛泉镇石门村西,117.473053,36.145279
468,8609CB94471AA9B69C462B3A1CC64D77,瀚蓝（南平）固废处理有限公司,福建省,福建省南平市建阳区回瑶村长后坪,118.111565,27.265837
469,27759AA696B692BD87929BB70F0A6E45,北控环境（文昌）再生能源有限公司,海南省,海南省文昌市头菀办事处青山岭西侧生活垃圾焚烧发电厂,110.749611,19.669083
470,81DA169B63194EB720E8B54E607CF09C,攀枝花旺能环保能源有限公司,攀枝花市,攀枝花市仁和区大龙潭乡迤资村码头组,101.857216,26.460000
471,13C2D0DCE6FB5F5F47DCFA428026B22B,德长环保股份有限公司（德力西长江环保投资有限公司）,温州市,浙江省温州市乐清市柳市镇蟾西村春泉路288号,120.866890,28.055969
472,A72A7408C1DC984BA0791E2F7D955D13,重庆丰盛三峰环保发电有限公司,重庆市,重庆市巴南区丰盛双碑村三组299号,106.884300,29.537701
473,97ABC8671968F8D33D057715D7227FC9,福泉海创环保科技有限责任公司,黔南布依族苗族自治州,福泉市牛场镇,107.499725,26.882778
474,607D7BE39E8B49743D320B5ADF2277B9,宿州市泗县深能环保有限公司,宿州市,宿州市泗县屏山镇涂山村,117.904722,33.568889
475,CFED4CB03A71ABF396E0417C5D794A15,五莲新能环保发电有限公司,日照市,山东省日照市五莲县许孟镇山王庄村东北,119.281670,35.786667
476,DD8AFFD47EC883FFAA945D6510DE38CB,博白绿色动力再生能源有限公司,玉林市,玉林市博白县旺茂镇石垌村旺茂农场（广西农垦旺茂农场）,109.884171,22.133888
477,86E0CD1605C343DCF7E78FBA84ECC306,中节能（西安）环保能源有限公司,西安市,西安市鄠邑区大王镇大王东村窑厂旧址,108.643578,34.193600
478,559CEEE0DE7FD5C00B2BDD256FD4894F,光大环保能源（滕州）有限公司,枣庄市,山东省枣庄市滕州市木石镇,117.282196,35.044029
479,CB67871E1EE812ADE5BEA44A19CED124,常德中联环保电力有限公司,常德市,湖南省常德市经济技术开发区檀树坪村三组,111.714310,28.912500
480,8609CB94471AA9B6D3277A87D64D11BD,龙岩新东阳环保净化有限公司,福建省,龙岩市新罗区铁山镇林邦村洋坑,117.031700,25.156401
481,1D07ECB64F81D609211A88817690FB7A,淮北旺能环保能源有限公司,淮北市,淮北市经济开发区新区滨河路与运河路检查口168号,116.963058,33.837776
482,8609CB94471AA9B6C93432FD3EB107D8,厦门市环境能源投资发展有限公司（后坑厂）,福建省,厦门市湖里区虎仔山北路51-59号,118.179169,24.499441
483,E4B27D6E2C8F315829E0C9EBD1B5044D,光大江东环保能源（马鞍山）有限公司,马鞍山市,马鞍山市雨山区向山镇313省道3299号,118.637383,31.666166
484,2A6045384F72F941548C31943DBC0EFB,高唐县国环再生资源有限公司,聊城市,山东省聊城市高唐县人和街道辛家楼村东,116.309029,36.855751
485,49FE92422820232452BA6BF799D52D11,瀚蓝（开平）固废处理有限公司,江门市,开平市百合镇蒲桥工业30号之6,112.480278,22.334167
486,0120B1AE224A2DF62708E553435D969C,丰城绿色动力环保有限公司,宜春市,丰城市杜市镇,115.885834,28.080278
487,E8F1C0CE6B1872714FDB2A844AD1D82D,蚌埠皖能环保电力有限公司,蚌埠市,五河县东刘集镇周庄北侧,117.585831,33.201893
488,F3AB5916A417E48E63EA00D48925F477,上海东石塘再生能源有限公司,上海市,上海奉贤化工园区漴缺村1488号,121.480003,30.920000
489,0120B1AE224A2DF667A8A3CB9E5E1931,宜春绿色动力再生能源有限公司,宜春市,江西省宜春市经济技术开发区东侧,114.379997,27.070000
490,6BB71200415564E0CF865631DA2B1205,绥化市绿能新能源有限公司,黑龙江省,黑龙江省绥化市北林区绥北路,126.980690,46.704132
491,88B1F700BDB0A5E0A4C21BF030395E32,启东天楹环保能源有限公司,南通市,启东市北新镇滨江化工园区上海路308号,121.427597,31.685801
492,50A933E6A8C3CF758A50462B5532B1A0,泰兴市三峰环保能源有限公司,泰州市,泰兴经济开发区通江路1号,119.922800,32.133100
493,BC10C6CEBC5A958E55E5B8FDB253752A,灵石县鑫和垃圾焚烧发电有限公司,晋中市,灵石县玉成,111.764999,36.814167
494,CE1CB6A0B9A78F11B4A9A33D38B5B9DE,成武德润能源环保有限公司,荷泽市,山东省菏泽市成武县天宫庙镇刘花堂楼村东侧,115.802986,35.222218
495,6BB71200415564E0CFC7197F017468A5,鸡西德普环境资源有限公司,黑龙江省,鸡西市鸡东县鸡东村常麻沟,130.390000,44.953335
496,00586C96EB6533B811042B06F78A49DC,光大广环投环保能源（肇庆）有限公司,肇庆市,广东省肇庆市高要区乐城镇社播村横水坑188号,112.194054,23.175051
497,849FC34138C22EEC70763ECE30ADCF67,濮阳高能生物能源有限公司,濮阳市,濮阳市经济技术开发区胡村乡天阴村垃圾填埋场北侧,114.962814,35.854340
498,85B6CA827F48D2318CE907623F2C470D,东莞市挚能资源再生发电有限公司,东莞市,东莞市厚街镇宝屯村厚街大道西78号,113.675735,22.897533
499,7743A394AA6BE6821BAD20D06C7020B9,霍邱海创环境工程有限责任公司,六安市,安徽省六安市霍邱县石店镇双庄村,116.066391,32.278057
500,0292E4266C2A737F0EE4283019681C03,唐山嘉盛新能源有限公司,唐山市,唐山市丰润镇西马村,118.118164,39.862869
501,33D8050BDC499697DFF74AACEE8CF876,光大环保能源(衢州）有限公司,衢州市,浙江省衢州市绿色产业集聚区高新片区红鹰路-28#,118.860001,28.883612
502,A405739C9897516ECBB06E61E3B89EFB,西咸新区北控环保科技发展有限公司,西安市,西咸新区秦汉新城正阳镇孙家村北,108.889168,34.464718
503,710ED230A1404DE7FB800CD6610A3DF6,光大绿环环保能源（沈阳）有限公司,沈阳市,沈阳市沈北新区财落街道郎士屯社区,123.423347,42.005638
504,5F537522C722293B7778C01F91E28BBD,永康市伟明环保能源有限公司,金华市,金华市永康市,119.956665,28.909166
505,CBB52C860FC70F4A275073CF690B46A1,北京北控绿海能环保有限公司（海淀苏家坨焚烧厂）,北京市,北京市海淀区苏家坨镇大工村发电厂,116.094208,40.030499
506,C23C9134D2D8B47042B60E2BA4589471,中山市广业龙澄环保有限公司(中山市南部中心组团垃圾焚烧),中山市,广东省中山市神湾镇外沙村南部组团垃圾处理基地第一栋,113.324348,22.360191
507,63EE73E696FE5A9075BB67D5B880EFA5,永城协鑫再生能源发电有限公司,永城市,永城市双桥镇马楼村,116.449165,33.940556
508,559CEEE0DE7FD5C040C15D76603F31AC,枣庄中科环保电力有限公司,枣庄市,枣庄市薛城区陶庄镇陶山路９号,117.346802,34.880798
509,8F3EAC9171F405F487F227C92C98597B,温州伟明环保能源有限公司,温州市,鹿城区山福镇临江发电厂,120.550476,28.137209
510,1DCC00CE2B78968366E69B83DC24ADEA,广州环投南沙环保能源有限公司,广州市,广州市南沙区大岗镇新联二村广州市第四资源热力电厂项目,113.466667,22.758333
511,C18E59218D21356AAB87EF7F09F6DDF4,珠海康恒环保有限公司,珠海市,珠海市斗门区斗门镇蛛山北路2号珠海康恒环保有限公司,113.120003,22.203888
512,2A6A8F66F7218A10697E52C76AE4B961,大同富乔垃圾焚烧发电有限公司,大同市,大同市云冈区西韩岭乡马辛庄村东,113.163696,40.004700
513,8609CB94471AA9B60106B24A66D158A3,福建保罗环保能源有限公司,福建省,福州晋安区新店镇红庙岭,119.302101,26.173481
514,E6C97D7E9DE3A01E20A9F225286649D2,来宾粤丰环保电力有限公司,来宾市,广西来宾市兴宾区城厢乡大莆田村1-1号,109.269089,23.674229
